school_no, longitude, latitude, person, sa2_name_2016, sa4_name_2016, mb_category_name_2016, sa3_name_2016, mb_code_2016, Connectivity, Area, Connections, LUM_Residential, LUM_Parkland, LUM_Education, LUM_Commercial, LUM_Industrial, LUM_Hospital/Medical, LUM_Transport, LandUseMixMeasure, AverageDensity, Connectivity_ZScore, AverageDensity_ZScore, LandUseMixMeasure_ZScore, SumZScore
2107,144.9052,-37.86318,10,"Williamstown","Melbourne - West","Industrial","Hobsons Bay","20285521000",88.7996366455328,529281.4450087551,47,306645.08432474086,57625.28984903671,20794.25573177117,10666.99984856695,112374.08198756157,0.0,10188.299627520784,0.6024842713917327,44.097983369085235,-0.40331701209183524,-0.5428883965763496,1.2640076199739847,0.3178022113057999
2105,145.03148,-37.80222,159,"Kew","Melbourne - Inner East","Residential","Boroondara","20074630000",62.17127319350058,739891.5550085416,46,651184.3494020149,0.0,14168.676855461264,66696.23724532434,0.0,7842.291505612433,0.0,0.23292772108326792,49.03369689120185,-0.9817003901257731,-0.42491543032598916,-0.935294919348366,-2.341910739800128
2100,144.98926,-37.81954,7,"East Melbourne","Melbourne - Inner","Parkland","Melbourne City","20668110000",182.78996643788395,815143.2100111112,149,376741.00445941795,332142.0932817075,0.0,79710.23187483012,0.0,12820.509046514519,13729.371348858345,0.5570531450627451,85.93552859270011,1.6382070397242412,0.45710872411286657,0.9936381963601495,3.088953960197257
2079,144.95494,-37.80384,49,"North Melbourne","Melbourne - Inner","Commercial","Melbourne City","20398673000",239.93985261219254,812703.6750129731,195,203782.2259093019,11139.459582880543,3624.361158841695,567082.3227495549,0.0,27075.305612296932,0.0,0.40815373129851823,152.36561254931576,2.879535455542788,2.0449144218109883,0.10750897331719748,5.031958850670974
2077,145.02567,-37.88817,114,"Caulfield - South","Melbourne - Inner South","Residential","Glen Eira","20192220000",68.35348507909836,599823.1100075581,41,518562.94531238003,0.0,5000.760454316158,59868.887608722434,0.0,7518.533329227939,7879.440811558394,0.2604244996135388,46.30865206536685,-0.8474191902858064,-0.49004919869168,-0.771656269744314,-2.1091246587218
2072,144.9771,-37.83359,0,"South Yarra - West","Melbourne - Inner","Education","Melbourne City","20400190000",186.47366847268125,681061.3050099658,127,180731.39766576313,401813.3022148489,67037.1335884741,31479.47154088001,0.0,0.0,0.0,0.5311958564204097,107.73668865839304,1.7182191677844039,0.9781980274372928,0.8397564683171419,3.5361736635388388
2047,144.98277,-37.77883,0,"Fitzroy North","Melbourne - Inner","Education","Yarra","20636600000",95.20165896524658,693265.2300113103,66,586954.8879056245,44598.025087265836,15206.238313056321,46506.07870544559,0.0,0.0,0.0,0.29933078926456025,73.98154155274607,-0.26426140312829854,0.1713856359914599,-0.5401174117436082,-0.6329931788804468
2036,145.00824,-37.81585,11,"Richmond (Vic.)","Melbourne - Inner","Education","Yarra","20643340000",127.10174778422495,763168.1050104254,97,452412.5654621194,8996.331020023208,34550.56969446875,119684.14489975506,147524.49393403548,0.0,0.0,0.5707718076745675,84.14539429550922,0.42862688360173956,0.41432110038231657,1.075280612096263,1.9182285960803191
2024,144.97227,-37.8103,21,"Melbourne","Melbourne - Inner","Commercial","Melbourne City","20394030000",251.63872259357834,770946.5300113185,194,83907.14683864723,124757.5614658003,0.0,517586.37474875135,0.0,44695.4469582485,0.0,0.49781768689766176,325.60500018085963,3.1336416439010275,6.18566617709618,0.6411165228797306,9.960424343876937
2019,144.98349,-37.87323,0,"Elwood","Melbourne - Inner","Education","Port Phillip","20528520000",86.31124793157359,637228.6500086671,55,553971.3029686412,53018.94966972238,6254.04858189635,23984.348788458272,0.0,0.0,0.0,0.2556274277476279,90.96328207390715,-0.4573662469550245,0.5772816209181112,-0.8002045726419449,-0.6802891986788582
2016,144.9686,-37.81069,3,"Melbourne","Melbourne - Inner","Commercial","Melbourne City","20393841000",264.7710744577863,766700.0650116908,203,88485.2930870384,7632.369408567727,15914.083977637172,654668.3185384708,0.0,0.0,0.0,0.2622958558741787,362.9313734011163,3.418883883681678,7.07783768349133,-0.7605194665336369,9.736202100639371
2010,144.94273,-37.74119,0,"Pascoe Vale South","Melbourne - Inner","Education","Brunswick - Coburg","20466830000",58.68296912494362,766832.365011886,45,731603.2031153848,0.0,10683.67131836433,24545.490578248864,0.0,0.0,0.0,0.11027014413942816,36.20717059781797,-1.057468361913297,-0.7314938706544765,-1.665253893731439,-3.4542161262992126
1999,144.99768,-37.83762,0,"South Yarra - East","Melbourne - Inner","Commercial","Stonnington - West","20549132000",186.99418261869573,497341.675006214,93,241211.68649535126,55683.58934867056,11332.650996720418,178622.85318222526,0.0,0.0,10490.89498328243,0.5814458662831679,153.0655999971844,1.7295250345767292,2.061645456785577,1.1388040002845543,4.929974491646861
1997,144.96716,-37.80142,5,"Carlton","Melbourne - Inner","Commercial","Melbourne City","20399960000",222.7170602552528,826160.3300129782,184,255839.83233734724,141360.72653784172,84504.66069549162,326667.51242610055,0.0,17787.59801628301,0.0,0.6926414775425916,150.9912902479248,2.505446494329377,2.012065497789648,1.8005505990127495,6.318062591131774
1981,145.04517,-37.84322,0,"Hawthorn East","Melbourne - Inner East","Commercial","Boroondara","20071601000",90.97522073663517,307776.1150045176,28,91311.7331648618,53342.30936402455,0.0,146200.81271651783,0.0,0.0,15219.858152177956,0.5999706995497798,46.52961595272934,-0.35606207364714276,-0.48476774037576376,1.2490488675715123,0.4082190535486059
1972,145.03622,-37.73395,3,"Preston - East","Melbourne - North East","Education","Darebin - North","20154500000",106.55762310356346,328460.78000429366,35,179183.07859629503,89121.7244693596,31458.54603420873,0.0,13336.666091759653,0.0,0.0,0.5356713872215431,54.049990298102585,-0.01760332701394724,-0.30501645115257353,0.8663912181207435,0.5437714399542227
1952,145.03133,-37.82708,0,"Hawthorn","Melbourne - Inner East","Education","Boroondara","20067490000",66.80170161778925,568847.7850073302,38,517853.8423441791,18796.408414598554,15259.503464941168,11930.608549449293,0.0,5007.422234125435,0.0,0.21478490682732992,83.33626088386426,-0.8811248200721035,0.39498126871739137,-1.0432663175829062,-1.5294098689376183
1941,144.9548,-37.83616,61,"South Melbourne","Melbourne - Inner","Residential","Port Phillip","20532510000",149.82155129348988,800952.8600122984,120,602422.9467694534,65061.77039632946,11566.442837065086,95832.66189265074,12612.337072151193,0.0,13456.701044638641,0.445765053271893,56.53025218603911,0.9221140904151605,-0.245733461836753,0.33134122809463074,1.0077218566730384
1924,145.03616,-37.78043,0,"Yarra - North","Melbourne - Inner","Education","Yarra","20639390000",82.40583588019709,400457.07500590035,33,347752.6572238359,33222.3978127133,19482.01996933247,0.0,0.0,0.0,0.0,0.24468646710164652,30.344042589727103,-0.5421940441630126,-0.8716338118242032,-0.8653163464996891,-2.279144202486905
1905,145.00522,-37.80366,66,"Abbotsford","Melbourne - Inner","Education","Yarra","20637690000",131.74359706902118,242896.0550032274,32,65335.687017454264,72260.58455918162,85455.57926210907,0.0,19844.204164455914,0.0,0.0,0.6608888679257923,57.378177794298466,0.5294505213180094,-0.2254664226907897,1.6115846751181553,1.915568773745375
1874,144.96613,-37.73633,0,"Coburg","Melbourne - Inner","Education","Brunswick - Coburg","20471878000",91.83155251353536,598922.6850095273,55,419543.9327472293,31024.311702879262,27383.83835701691,51600.812688401085,68281.99902412621,0.0,0.0,0.5152100146514933,38.46067224807187,-0.3374620546586105,-0.6776308834816457,0.7446216307226321,-0.27047130741762415
1838,145.03604,-37.80551,0,"Kew","Melbourne - Inner East","Education","Boroondara","20075320000",72.82510481018748,672844.8950085877,49,475440.6112748045,46325.387611155515,36550.03225351491,114528.86386915075,0.0,0.0,0.0,0.4569825160969579,51.114516381791866,-0.7502930364382573,-0.3751798760973076,0.398098519922707,-0.727374392612858
1819,144.97981,-37.78917,82,"Fitzroy North","Melbourne - Inner","Residential","Yarra","20636410000",159.72589369707927,863980.1400123482,138,598566.1195423089,185045.31549789401,18102.24606335722,36332.014849271654,0.0,0.0,25934.444059734058,0.46445677764231363,74.1881821687159,1.137242107084755,0.1763247408046802,0.4425792966334419,1.756146144522877
1788,144.99873,-37.74725,0,"Preston - East","Melbourne - North East","Education","Darebin - North","20153680000",104.74310087977689,210037.70000328124,22,83892.30323451757,35247.39531581104,12257.084498954937,22880.403080880293,31246.363760512962,0.0,24514.150112607982,0.8261257575665185,43.14014121168771,-0.057015793919840914,-0.5657826508724076,2.5949413783703243,1.9721429335780758
1773,145.0105,-37.85823,68,"Prahran - Windsor","Melbourne - Inner","Residential","Stonnington - West","20631988020",99.00478561578016,656533.9200092141,65,619714.2159802623,8923.495684378082,7079.076290577155,19884.93042713031,0.0,932.2016267477302,0.0,0.14233473832129676,79.11117731507704,-0.1816553036889191,0.2939937136188259,-1.4744312893217424,-1.3620928793918357
1729,145.0012,-37.88229,85,"Elsternwick","Melbourne - Inner South","Residential","Glen Eira","20190600000",86.17341956586543,533807.2950074883,46,438692.26253700466,11713.640486191027,17145.21803825174,66256.17394575197,0.0,0.0,0.0,0.3157859376217603,45.74975588609116,-0.46035995837445826,-0.5034078832668073,-0.442189639832357,-1.4059574814736227
1647,145.02695,-37.80623,68,"Kew","Melbourne - Inner East","Residential","Boroondara","20075260000",81.89541069276363,634956.2150079648,52,496830.19952815137,2430.2930187974125,0.0,107446.15608586153,0.0,13012.657594885677,15236.90878020972,0.3510183928703373,46.29954945624304,-0.5532807729690533,-0.490266768409643,-0.23251448124004126,-1.2760620226187376
1626,145.04337,-37.84227,0,"Hawthorn East","Melbourne - Inner East","Commercial","Boroondara","20071592000",80.26781221658916,298999.0550040164,24,69658.02163536263,74204.73578948967,1785.6332536465488,128820.23787994192,0.0,0.0,22829.02483864437,0.6560519683029559,46.2556861140542,-0.5886331485075822,-0.4913151859412694,1.582799349532471,0.5028510150836194
1625,144.89796,-37.75662,3,"Essendon - Aberfeldie","Melbourne - Inner","Education","Essendon","20445930000",65.60899092661694,685881.6050125217,45,632307.2295264706,1341.4071589323576,52232.96832682051,0.0,0.0,0.0,0.0,0.14557303049400314,32.180772257705414,-0.9070311826549976,-0.8277324698681735,-1.4551595859990543,-3.1899232385222254
1585,144.89658,-37.75635,3,"Essendon - Aberfeldie","Melbourne - Inner","Education","Essendon","20445930000",64.45446066660801,651622.8600103543,42,587267.6647217044,22466.401738013257,41888.793550760005,0.0,0.0,0.0,0.0,0.19848836182646534,34.495112057009074,-0.9321082443012852,-0.772415334906493,-1.1402502102311798,-2.8447737894389578
1563,144.89104,-37.7669,11,"Maribyrnong","Melbourne - West","Education","Maribyrnong","20376730000",66.0641077360436,423830.7450071503,28,318825.9316690085,86960.221791843,14193.256451889058,0.0,0.0,0.0,0.0,0.333898107846416,43.47779166830667,-0.8971457836476423,-0.557712161014227,-0.3344006101575352,-1.7892585548194044
1561,145.00084,-37.86928,0,"Caulfield - North","Melbourne - Inner South","Education","Glen Eira","20631990800",58.0063404733457,603382.3150088693,35,552823.4393180872,2680.6374193039373,26163.4368397652,17069.801555566024,0.0,4644.999876073423,0.0,0.19458560643289818,84.43547103177521,-1.0721651256062938,0.4212544875945563,-1.163476262753485,-1.8143869007652225
1559,145.02655,-37.82304,0,"Hawthorn","Melbourne - Inner East","Education","Boroondara","20067160000",112.71627313983437,621028.3400087127,70,419109.22023907583,44331.91429724463,9839.418209495168,138174.90675864578,0.0,9572.880503938999,0.0,0.4718529252561044,111.45562930174299,0.11616609589947467,1.0670878013350436,0.4865952022225476,1.6698490994570658
1534,144.88902,-37.74366,0,"Niddrie - Essendon West","Melbourne - North West","Education","Keilor","20454840000",46.72048658989305,321058.30000591045,15,285963.4738110013,2900.180812079925,20492.85316072218,0.0,0.0,0.0,0.0,0.15225522243790063,40.08502362269509,-1.3173003666385628,-0.6388057877708692,-1.4153925687504454,-3.3714987231598776
1533,145.00034,-37.86812,0,"Caulfield - North","Melbourne - Inner South","Education","Glen Eira","20189500000",66.3698273555729,647884.7650097045,43,592176.5445283076,4540.2593028259,26169.481507128367,20860.784681272828,0.0,4137.694990017466,0.0,0.20014658404865365,88.652977299862,-0.890505377578635,0.5220609307554467,-1.1303818089243285,-1.4988262557475167
1516,145.01619,-37.76085,60,"Thornbury","Melbourne - Inner","Residential","Darebin - South","20143410000",51.24898842174883,741478.0500111047,38,735271.1510756158,6206.8989355546655,0.0,0.0,0.0,0.0,0.0,0.02485937890969301,41.88038128300652,-1.218938700828352,-0.5958933157000799,-2.1735498844219845,-3.9883819009504164
1515,145.0082,-37.8839,0,"Elsternwick","Melbourne - Inner South","Education","Glen Eira","20631983460",79.30940172017034,643051.1250096776,51,528253.435013793,23191.5341719687,18676.340442357345,72929.8153817826,0.0,0.0,0.0,0.3242781587743656,51.19840288000346,-0.6094503760274205,-0.3731748288071777,-0.391650788525778,-1.3742759933603763
1513,144.9052,-37.75665,124,"Essendon - Aberfeldie","Melbourne - Inner","Residential","Essendon","20450630000",65.2568848253406,704906.4650131328,46,649572.6503537642,19070.996392170546,27762.302472170442,8500.51579503715,0.0,0.0,0.0,0.18174434447311671,38.64441135701754,-0.914679129801634,-0.6732391683625675,-1.2398970974340708,-2.8278153955982726
1500,145.03412,-37.76306,0,"Ivanhoe","Melbourne - North East","Education","Banyule","20023290000",77.80132996830135,629809.2850079054,49,569127.3178597585,47985.50888897867,5729.764427589049,0.0,0.0,6966.693831691504,0.0,0.1954284791086328,35.271501035394536,-0.6422065623298492,-0.753858157644523,-1.158460164366049,-2.554524884340421
1459,144.97272,-37.74742,96,"Coburg","Melbourne - Inner","Residential","Brunswick - Coburg","20471940000",76.58864006068552,639781.5650098308,49,609988.3477130263,13221.750421719858,10004.532346320571,6566.934529077131,0.0,0.0,0.0,0.12213220083205548,42.04037757036178,-0.6685468849913597,-0.5920690992977773,-1.5946604990699038,-2.8552764833590407
1422,144.92413,-37.74214,3,"Strathmore","Melbourne - North West","Education","Keilor","20447010000",65.9176521047925,561306.4000092009,37,486888.2138150448,29052.03554253262,25607.54290351295,19758.607748000883,0.0,0.0,0.0,0.27508805570142136,30.275223028967844,-0.9003268842394114,-0.8732787305745392,-0.6843906100972115,-2.457996224911162
1415,145.0247,-37.8354,0,"Toorak","Melbourne - Inner","Education","Stonnington - West","20631955270",23.740669085779025,210609.06000307575,5,3512.6667096812744,124649.59216000017,69745.03154192091,0.0,0.0,0.0,12701.769591480494,0.4697283596553827,8.269026795398666,-1.8164352270506676,-1.3992687893428501,0.473951501233554,-2.7417525151599635
1412,144.99261,-37.7341,0,"Preston - West","Melbourne - North East","Education","Darebin - North","20153840000",67.30628597661168,564583.2250082059,38,524966.9201917066,0.0,19794.446639041787,0.0,0.0,0.0,0.0,0.08022959205779867,38.10550489630165,-0.8701649574247229,-0.6861200605410245,-1.8440310319546056,-3.4003160499203533
1368,145.0053,-37.88251,0,"Elsternwick","Melbourne - Inner South","Education","Glen Eira","20190720000",95.40283169776069,691803.3650100678,66,565229.6127939996,11303.551411547232,17342.0634988991,97928.13730549655,0.0,0.0,0.0,0.3090971165980296,45.91824374846606,-0.2598918156089819,-0.4993807020269558,-0.481996108017767,-1.2412686256537047
1265,144.95155,-37.74984,0,"Coburg","Melbourne - Inner","Education","Brunswick - Coburg","20468620000",64.31333076643298,761894.9200120505,49,745598.4232682947,6639.570053269177,9656.926690198103,0.0,0.0,0.0,0.0,0.06056580435253363,44.265559915420795,-0.9351736669492774,-0.538882997527841,-1.961054037491343,-3.435110701968461
1226,145.0149,-37.84819,0,"Toorak","Melbourne - Inner","Education","Stonnington - West","20543840000",121.16739545689451,610725.3500082504,74,543995.7569788861,29359.560310956265,19284.281420862135,18085.751297678857,0.0,0.0,0.0,0.23757487107945569,51.28357838827748,0.29972933600337237,-0.37113897171823956,-0.9076388305070325,-0.9790484662218997
1193,144.91031,-37.75111,0,"Essendon - Aberfeldie","Melbourne - Inner","Education","Essendon","20444670000",65.03968097909181,738011.0000144446,48,681346.5705498577,25000.630099070957,19499.96104659699,12163.838318994965,0.0,0.0,0.0,0.18094264084310913,47.276255695108894,-0.919396922336712,-0.46692162659014275,-1.244668190864259,-2.6309867397911137
1176,145.00946,-37.85246,0,"Prahran - Windsor","Melbourne - Inner","Education","Stonnington - West","20550690000",167.63356969167572,697950.8950098432,117,594377.4037548621,53370.10811306123,3650.2050218940713,43537.57837973448,0.0,3015.5997402071953,0.0,0.2864753307626397,69.75503338792525,1.3090013803270435,0.07036403033079451,-0.6166227327934658,0.7627426778643721
1164,145.03876,-37.77194,0,"Ivanhoe","Melbourne - North East","Education","Banyule","20021340000",80.44865679458796,522072.11000725464,42,394635.4466833856,64687.22435668635,10702.70930227392,48088.753813004936,0.0,0.0,3957.9758519749157,0.41453321451316394,32.16828322458626,-0.5847051002026052,-0.8280309815779928,0.14547451234450898,-1.2672615694360891
1163,145.01132,-37.87791,0,"Caulfield - North","Melbourne - Inner South","Education","Glen Eira","20182680000",83.34509627704844,479932.25500676746,40,471638.48130269884,0.0,8293.773704051222,0.0,0.0,0.0,0.0,0.04484287605748144,36.55768262321314,-0.5217927678261102,-0.7231159647737971,-2.0546242261296674,-3.299532958729575
1130,145.02553,-37.87345,3,"Caulfield - North","Melbourne - Inner South","Education","Glen Eira","20190940000",71.45732952265742,615752.0900084665,44,419311.757374265,155157.86950266713,18421.70812507905,22860.755006445106,0.0,0.0,0.0,0.42974488006919254,48.8062717161925,-0.7800019027986722,-0.43035132573921303,0.23600207749460975,-0.9743511510432755
1117,144.91496,-37.75991,0,"Essendon - Aberfeldie","Melbourne - Inner","Education","Essendon","20449830000",74.7234219272273,562072.7600096198,42,494567.52074011264,149.14618118190265,35713.13709340198,31642.955995155906,0.0,0.0,0.0,0.2322087855880778,36.756817664907025,-0.7090604962293566,-0.7183562574999149,-0.9395734435927903,-2.3669901973220617
1116,145.02127,-37.8383,10,"Toorak","Melbourne - Inner","Education","Stonnington - West","20550460000",74.30431020106495,390286.9150056973,29,365140.3870266837,3076.1376450220123,22070.390334011012,0.0,0.0,0.0,0.0,0.13511807379599122,34.50021494152129,-0.7181638441083236,-0.7722933662347615,-1.5173790563216618,-3.007836266664747
1108,145.00166,-37.75684,0,"Thornbury","Melbourne - Inner","Education","Darebin - South","20631928520",85.32907847924874,714879.3950099279,61,535417.9088873508,14708.675448798862,17573.5539474627,106159.90176389423,0.0,0.0,41019.35496229143,0.4289571949077237,67.2888160290476,-0.47869953266973625,0.011416732044293061,0.23131441068324102,-0.23596838994220218
1070,144.98112,-37.88253,3,"Elwood","Melbourne - Inner","Education","Port Phillip","20524210000",98.93534683755762,606456.660009635,60,450201.77298391785,92735.38389115769,39179.826639645966,8365.728607507888,0.0,0.0,0.0,0.37917581464404626,71.47922019718294,-0.18316355391192865,0.11157538332898174,-0.06494421586117294,-0.13653238644411986
1045,145.03116,-37.85807,0,"Malvern - Glen Iris","Melbourne - Inner South","Education","Stonnington - East","20631971980",76.86472528446143,598453.9700072163,46,408040.25560175534,19404.118658645075,31532.124976971303,102746.49524565348,0.0,25034.26219596417,11696.713327920064,0.534249102511918,57.26367570974266,-0.6625501550518569,-0.22820324088260113,0.8579269266045825,-0.03282646932987554
1041,145.02036,-37.78007,12,"Alphington - Fairfield","Melbourne - Inner","Education","Darebin - South","20144570000",77.07234416231454,506018.08500680747,39,406570.5116354232,0.0,30015.826611660887,69431.74675990298,0.0,0.0,0.0,0.3165146931793682,41.6576226637721,-0.6580405535462063,-0.6012176715305312,-0.4378526744963226,-1.69711089957306
1033,144.92879,-37.79558,75,"Kensington (Vic.)","Melbourne - Inner","Residential","Melbourne City","20631938090",153.60692582650228,624971.8200104544,96,492802.82272314146,22185.328205899907,9900.085184083277,11907.005709111923,65106.02808502419,0.0,23035.855058662164,0.4132930116368088,81.34748734925758,1.0043346036461478,0.3474457883807714,0.1380938250505995,1.4898742170775185
1021,145.03229,-37.83392,5,"Hawthorn","Melbourne - Inner East","Education","Boroondara","20071500000",65.80697131969883,577446.4200060364,38,416508.9685751833,67972.22040130748,91109.92054455815,1855.31048546915,0.0,0.0,0.0,0.4097274016765815,55.26907530842643,-0.902730934585248,-0.2758779944462005,0.11687419023905175,-1.0617347387923968
1004,145.04448,-37.77252,0,"Ivanhoe","Melbourne - North East","Education","Banyule","20016910000",83.1047421965569,360990.230004503,30,260825.53427660337,8116.33853238821,47611.602305416294,28324.489129364396,0.0,0.0,10624.91168211028,0.4569731278315137,27.179271898247094,-0.5270133967712334,-0.9472778669953775,0.3980426485384386,-1.076248615228172
1003,144.89493,-37.85019,0,"Newport","Melbourne - West","Education","Hobsons Bay","20282710000",107.64912733773683,548076.900009549,59,508007.79458126816,22372.98606140801,2436.972617079504,4970.328263649113,0.0,0.0,0.0,0.1304459238953831,45.50450530165279,0.006104773081530489,-0.509269839960846,-1.5451839244316312,-2.048348991310947
962,144.96825,-37.75863,3,"Brunswick","Melbourne - Inner","Education","Brunswick - Coburg","20631931300",74.67848153730436,615973.9600091022,46,526524.2796587886,0.0,12807.028076265939,46362.187725162235,21664.84833315806,8615.616215763148,0.0,0.3015565029673656,60.87710532001864,-0.7100366273603823,-0.14183538189909708,-0.5268717588271641,-1.3787437680866435
956,145.03218,-37.85768,0,"Malvern - Glen Iris","Melbourne - Inner South","Education","Stonnington - East","20631971980",84.60747911090512,602783.5900080206,51,432069.23602339276,34639.40001946781,37516.08407121,73852.655710482,0.0,16402.485125370637,8303.72905804962,0.5087464588459877,59.17111184195426,-0.49437308620980125,-0.18261187958462657,0.7061557594392389,0.02917079364481112
954,144.91127,-37.77384,0,"Ascot Vale","Melbourne - Inner","Education","Essendon","20449950000",79.8113095502259,726714.0500119238,58,653870.199061933,9210.445495260006,13437.897262587969,50127.08875089776,68.41944101266563,0.0,0.0,0.21044430884197007,55.985682641770815,-0.5985486491251214,-0.25874971251237705,-1.0690980560906156,-1.926396417728114
931,144.97786,-37.77634,66,"Brunswick East","Melbourne - Inner","Residential","Brunswick - Coburg","20464460000",81.01837924376895,752915.5800125619,61,681878.126287687,12502.505612707231,10965.625131043882,22019.014223269107,25550.308757363353,0.0,0.0,0.22483252624252392,77.2550097403126,-0.5723304007475428,0.24962776861989636,-0.9834709902492791,-1.3061736223769256
915,144.94298,-37.76229,0,"Brunswick West","Melbourne - Inner","Education","Brunswick - Coburg","20462840000",84.396923026611,758321.4850122001,64,673491.599769421,33272.48609739452,6872.98777102679,17186.132177941734,0.0,0.0,27498.27919628052,0.2524640459317379,62.00375574528016,-0.49894648552962817,-0.11490628806094164,-0.8190304699362183,-1.432883243526788
818,144.99155,-37.85955,0,"St Kilda","Melbourne - Inner","Education","Port Phillip","20527120000",118.34164225230556,616858.0950090524,73,376760.5079463908,91064.81327908183,49958.93942604429,99073.8343573176,0.0,0.0,0.0,0.555437289130482,87.05428195582161,0.2383523502601629,0.4838490631051124,0.9840219250424336,1.706223338407709
707,144.91429,-37.7572,3,"Essendon - Aberfeldie","Melbourne - Inner","Education","Essendon","20448730000",87.3198089747786,767294.3950135328,67,619944.6634316127,0.0,35834.91659678868,111514.81498516958,0.0,0.0,0.0,0.3061267874573913,42.47643758580328,-0.4354597206987958,-0.5816464333034286,-0.4996731114863192,-1.5167792654885437
605,144.94287,-37.79289,12,"North Melbourne","Melbourne - Inner","Education","Melbourne City","20399470000",153.146711113058,620320.2100100461,95,357792.7366950414,127724.87418232912,20999.10685872333,46050.06172128697,66386.40672432352,1367.0238281537313,0.0,0.6182722655050237,81.81276720527413,0.9943384752298327,0.35856686429104306,1.3579650278867512,2.710870367407627
590,145.03745,-37.80817,50,"Kew","Melbourne - Inner East","Residential","Boroondara","20072820000",62.66734400232072,718077.3450097637,45,569712.4989925725,30209.75244819792,49648.48293767194,68506.610631496,0.0,0.0,0.0,0.3729884840153907,40.84098586815319,-0.9709254466837449,-0.6207368483823995,-0.10176621766812467,-1.693428512734269
579,144.98639,-37.80046,0,"Collingwood","Melbourne - Inner","Education","Yarra","20639700000",152.7669486707795,778964.3050110991,119,472590.1047956759,0.0,47412.90025629997,222827.45969651063,36133.84026253202,0.0,0.0,0.5005452737599775,84.83958350239989,0.9860898164412022,0.43091354633950363,0.657348920079851,2.0743522828605565
566,144.92319,-37.75966,3,"Moonee Ponds","Melbourne - Inner","Education","Essendon","20447840000",116.40929702670338,670049.5750103827,78,498760.3845833498,105454.54976970782,20218.72960357042,45615.91105349379,0.0,0.0,0.0,0.4107775339813067,57.32519915795778,0.19638069995109206,-0.22673271313674112,0.12312373078292452,0.09277171759727545
524,144.98822,-37.79034,0,"Yarra - North","Melbourne - Inner","Education","Yarra","20639710000",142.80714811263178,700245.0600100924,100,436840.4118619247,88611.60703972296,18805.152817291557,133971.44974799082,0.0,0.0,22016.438543071505,0.5541253354384066,59.22048933489678,0.7697572167400311,-0.18143166333375754,0.9762142347605368,1.5645397881668104
509,144.9848,-37.83169,86,"South Yarra - West","Melbourne - Inner","Education","Melbourne City","20400110000",146.1705958792546,670449.480010013,98,292920.56573242106,347782.22762879764,22764.370549996092,5192.215003456455,0.0,0.0,1790.1010953509249,0.4473885067086496,79.4996885063635,0.8428132377983414,0.30327987203384454,0.3410027136316892,1.4870958234638754
478,144.8899,-37.8137,19,"Yarraville","Melbourne - West","Education","Maribyrnong","20379920000",112.77787068250507,576354.2050105693,65,489772.09612452076,3.5586009775288403,10533.941573111806,40986.85565426532,0.6340581906260923,0.0,0.0,0.1863777864523662,53.0947678279653,0.1175040299738929,-0.32784808992701486,-1.2123225876540105,-1.4226666476071324
477,144.90685,-37.80116,0,"Footscray","Melbourne - West","Education","Maribyrnong","20631951280",113.09238650139335,618962.9750110328,70,280980.03988941794,21491.835088972468,12322.03835411556,261094.8789562469,43074.182722297264,0.0,0.0,0.5666952957083018,52.1730272172263,0.12433549455493653,-0.3498794484074128,1.0510205005882876,0.8254765467358113
468,144.97852,-37.80205,18,"Fitzroy","Melbourne - Inner","Commercial","Yarra","20639621000",181.75255506806303,742768.1000107258,135,528271.3455295481,26136.132376098813,16098.141423418623,172262.48068185194,0.0,0.0,0.0,0.4019217307122438,90.23085674134624,1.6156738677713833,0.5597752586359537,0.07042113194891042,2.2458702583562475
467,144.97441,-37.80371,11,"Fitzroy","Melbourne - Inner","Education","Yarra","20639260000",168.77138649663573,580667.1500085918,98,271734.75163077004,183801.38465632166,11273.006904570599,72661.8384973311,0.0,41196.16831959596,0.0,0.639178245024855,96.00834310288496,1.333715416111557,0.6978682011229065,1.4823805572735482,3.5139641745080117
457,145.0355,-37.8102,0,"Kew","Melbourne - Inner East","Education","Boroondara","20071780000",60.413519440582355,711761.2150090209,43,566795.1197702677,26449.195818852633,49959.72415782043,59460.18319028966,0.0,0.0,9096.992072058842,0.387109236378376,37.27218367850002,-1.0198798131757874,-0.7060380269025045,-0.017730888019296183,-1.7436487280975879
404,145.0311,-37.81386,54,"Kew","Melbourne - Inner East","Residential","Boroondara","20074690000",55.39348710728503,379105.94000568346,21,364107.7875231131,393.8116539688781,3729.8053865516267,10874.535441836852,0.0,0.0,0.0,0.09930747770799872,49.280039560781994,-1.1289178043389472,-0.4190273707143083,-1.7304948429184093,-3.278440017971665
391,145.02509,-37.85232,0,"Armadale","Melbourne - Inner","Education","Stonnington - West","20631913830",72.6889737136872,495260.8100067489,36,423739.81370659074,1350.9172288104892,24682.70447828062,45487.374592984095,0.0,0.0,0.0,0.2663555600951936,34.866997365457635,-0.7532498821937664,-0.7635265667991022,-0.7363593811699131,-2.253135830162782
336,144.96785,-37.73893,3,"Coburg","Melbourne - Inner","Education","Brunswick - Coburg","20467110000",110.96555816419209,711932.6150111037,79,468366.26447747916,69541.9831664477,58691.93416582263,65036.258865509204,50296.174335820135,0.0,0.0,0.5726154433042948,46.897992358845364,0.07813955914250742,-0.47596284172607095,1.0862524444684942,0.6884291618849308
330,144.98573,-37.83895,3,"South Yarra - West","Melbourne - Inner","Education","Melbourne City","20399120000",159.91342661430357,694125.5800097496,111,454090.49200728594,176158.38174170768,15408.028377788956,48468.6778830354,0.0,0.0,0.0,0.46045380741400344,90.66741635183132,1.1413154299666564,0.5702098659046391,0.4187568462382155,2.130282142109511
259,145.03848,-37.81395,88,"Kew","Melbourne - Inner East","Residential","Boroondara","20074150000",73.23084661307617,669116.9400088639,49,625708.0002857056,0.0,13224.762351569374,30184.177371525147,0.0,0.0,0.0,0.14392132822679188,51.571602614355456,-0.7414800909868001,-0.36425464341390734,-1.464989185792239,-2.5707239201929464
152,145.00377,-37.74481,0,"Preston - East","Melbourne - North East","Education","Darebin - North","20155860000",92.37816202981276,638679.0850088489,59,399169.70812028187,19827.801006703157,34479.074951339804,161577.4261665062,0.0,0.0,23625.0747640247,0.5287037450149081,46.72028514444955,-0.3255893814070408,-0.48021038306177083,0.8249254311245421,0.019125666655730456
151,144.99672,-37.77462,0,"Northcote","Melbourne - Inner","Education","Darebin - South","20145160000",104.74668275715158,725559.9700107076,76,613283.1832270292,1692.2879270849517,20835.540951853618,45909.603282157244,0.0,3688.133421553299,40151.22120109001,0.31854413709387625,58.358615544816374,-0.05693799348199554,-0.202032090626309,-0.4257750610678383,-0.6847451451761428
148,145.03432,-37.82646,7,"Hawthorn","Melbourne - Inner East","Education","Boroondara","20068830000",85.33828354789937,761674.5650094576,65,666953.6328737143,0.0,23928.969169965945,70791.96296586341,0.0,0.0,0.0,0.22910017862561546,88.18570434251306,-0.47849959328139285,0.5108922159222178,-0.9580733651354933,-0.9256807424946685
113,144.93173,-37.7847,0,"Flemington","Melbourne - Inner","Education","Essendon","20450070000",116.05402975058146,663484.0700101946,77,544037.3074314655,10676.80327290867,48419.30628200597,48915.070031229814,5904.493087820127,0.0,5531.089905209839,0.35684534121332173,87.83335871314486,0.1886640902676445,0.5024704834096526,-0.19783718414835375,0.4932973895289434
107,144.99759,-37.85902,0,"St Kilda East","Melbourne - Inner","Education","Port Phillip","20527180000",134.49745139198984,602241.8950075663,81,405175.36366432504,123708.88201136768,51377.64626857401,21980.00306368757,0.0,0.0,0.0,0.4741100042483004,89.88787121302147,0.589265821976692,0.5515772503893024,0.500027516045275,1.6408705884112693
106,144.99472,-37.85764,3,"Prahran - Windsor","Melbourne - Inner","Education","Stonnington - West","20548750000",154.77462186598794,684866.8000092445,106,413359.88217131584,93703.96115228927,77467.68908644828,100335.26759923022,0.0,0.0,0.0,0.5677525623809331,79.18261029502794,1.0296976335991967,0.29570109807198525,1.0573124991360552,2.382711230807237
98,144.94624,-37.7933,0,"North Melbourne","Melbourne - Inner","Education","Melbourne City","20632000580",175.0593286435613,576947.2600094699,101,379849.4942022297,140993.62298997477,20999.10685872333,19018.51844849845,0.0,16086.517510231119,0.0,0.48944371692804156,86.19309308771106,1.4702931380722815,0.4632650067538793,0.591281407244458,2.5248395520706186
96,145.00488,-37.87738,58,"Caulfield - North","Melbourne - Inner South","Education","Glen Eira","20632006670",72.99366365472731,657591.3250093642,48,608341.648498819,10283.024335579947,37384.53014740348,1582.1220275542,0.0,0.0,0.0,0.16164947697108836,45.7258452570662,-0.7466318413340947,-0.5039793929013002,-1.3594855422544059,-2.610096776489801
83,145.03918,-37.81111,0,"Kew","Melbourne - Inner East","Education","Boroondara","20072280000",74.23905294370722,579209.975006084,43,494882.794134219,6913.303252851765,47631.59806156112,29782.279557445014,0.0,0.0,0.0,0.2802424958943776,41.76343478681638,-0.7195812692918044,-0.5986885599917746,-0.6537155391352932,-1.9719853684188724
78,144.9009,-37.8635,3,"Williamstown","Melbourne - West","Education","Hobsons Bay","20283420000",80.12738817821081,723847.3800119702,58,550287.123603149,71850.85827598954,32449.533776906304,24850.01286032633,13742.067178271249,0.0,28771.814038157347,0.46036600832371966,41.620611464289986,-0.5916832394311475,-0.6021023097835059,0.41823433686299233,-0.775551212351661
26,144.997,-37.85936,13,"St Kilda East","Melbourne - Inner","Education","Port Phillip","20527170000",116.60987529990508,565989.8000084193,66,384800.2401086331,116423.17030306972,50795.6725960864,13970.717000790217,0.0,0.0,0.0,0.46011216968889046,91.92829907412961,0.20073737547204898,0.6003473676410789,0.4167236940298671,1.217808437142995
25,144.95288,-37.80597,213,"North Melbourne","Melbourne - Inner","Commercial","Melbourne City","20631900250",200.2536947275444,823954.8350131123,165,192955.6509448374,59096.28690913669,3062.639144450426,568840.2580146581,0.0,0.0,0.0,0.41396041258595895,99.35313283607111,2.0175292680480323,0.7778150547114642,0.14206565723971065,2.9374099799992073
1,144.98215,-37.84883,6,"South Yarra - West","Melbourne - Inner","Education","Melbourne City","20400690000",130.60481831782124,643161.5700087694,84,401343.79767540825,95967.14716791957,57966.58721738209,11361.172393841203,0.0,76522.86555414647,0.0,0.5753642029368617,118.61326696087555,0.5047155915075925,1.2381689919692684,1.1026108449212673,2.845495428398128
8889,144.94742,-37.84437,0,"Albert Park","Melbourne - Inner","Education","Port Phillip","20532020000",170.62756079313334,474718.15000745014,81,399562.1563632295,23442.977405393132,22676.411324120127,29036.60491456813,0.0,0.0,0.0,0.3133786293320079,68.17823520013971,1.374032590006302,0.032675546475783177,-0.45651599727390446,0.9501921392081806
8849,144.9764,-37.74118,0,"Coburg","Melbourne - Inner","Education","Brunswick - Coburg","20468780000",73.35212853825018,613479.1300096263,45,381374.4779089776,135932.2985419022,78488.08385774744,17684.269700847566,0.0,0.0,0.0,0.5111885886614825,50.968558474833685,-0.7388457777777675,-0.378668548435034,0.7206893465183736,-0.396824979694428
8836,144.89401,-37.79107,0,"Footscray","Melbourne - West","Education","Maribyrnong","20371480000",98.42613112840074,599434.3100109481,59,427010.0430335165,89578.12391506147,32340.749046448283,0.0,42542.094738119325,6435.131964651053,0.0,0.47249144483908717,100.21852489208493,-0.19422401215378218,0.798499575269632,0.4903951558131115,1.0946707189289613
8819,145.01433,-37.82251,0,"Richmond (Vic.)","Melbourne - Inner","Education","Yarra","20645840000",80.04269477213087,349813.3100055121,28,157140.5946990673,83469.72866471655,68936.47529527417,24706.640407253606,15559.87093907129,0.0,0.0,0.6922816559628084,50.3783482361992,-0.5935228289498182,-0.39277569874897356,1.79840923116672,0.8121107034679281
8807,144.95576,-37.77101,0,"Brunswick","Melbourne - Inner","Education","Brunswick - Coburg","20465220000",111.60154869762682,618270.9900106186,69,274524.44436348137,59152.89147306944,55417.99181754244,84755.0529737708,133936.3668314077,10484.2425513044,0.0,0.7575456493102667,65.12072643029413,0.09195363952293409,-0.04040474420536866,2.1868078840266802,2.2383567793442456
8748,144.9848,-37.80784,3,"Collingwood","Melbourne - Inner","Education","Yarra","20637590000",149.62663114923132,788629.6650113827,118,386204.92797149514,55647.545632293746,15429.528940862278,178787.42433745787,127031.77020984518,25528.467919233575,0.0,0.696476633752285,86.58784486505942,0.9178803127109387,0.47270032707741727,1.8233743557115176,3.213954995499874
8742,144.98747,-37.78491,5,"Fitzroy North","Melbourne - Inner","Education","Yarra","20637940000",123.97325907178546,758228.0300106513,94,499078.3080578605,185210.14659183292,24240.557244846488,49699.018116206964,0.0,0.0,0.0,0.4667521600319725,59.116576201230004,0.3606743084124557,-0.18391538540476282,0.45623956138609983,0.6329984843937927
8704,145.03801,-37.8857,0,"Caulfield - North","Melbourne - Inner South","Education","Glen Eira","20189740000",81.33140212405252,565587.2000071693,46,452877.0707823519,91581.79891487537,21128.3303100653,0.0,0.0,0.0,0.0,0.3060562387579227,61.36634601068773,-0.5655313636521366,-0.13014159634408462,-0.5000929604478859,-1.1957659204441071
8475,144.89513,-37.86275,0,"Williamstown","Melbourne - West","Education","Hobsons Bay","20283310000",71.78794849014554,487547.015009135,35,368129.6365643406,24645.160262004472,31355.69245816674,11795.220949567263,0.0,0.0,51621.30477504675,0.4456926438668309,42.105007175280534,-0.772820668563142,-0.5905243284828405,0.33091030571403446,-1.032434691331948
8405,144.95566,-37.79701,0,"Parkville","Melbourne - Inner","Education","Melbourne City","20400900000",176.71047055665233,481012.8100063517,85,208899.55207453622,77137.66638498032,104407.29685853608,20756.960311650146,0.0,69811.33437671093,0.0,0.7210303454160097,99.36248335332739,1.5061568906092078,0.7780385499065876,1.969498244915334,4.253693685431129
8368,144.96188,-37.76969,83,"Brunswick","Melbourne - Inner","Commercial","Brunswick - Coburg","20462601000",125.61315643709668,692602.6100105764,87,279084.4790108263,0.0,35290.1384431173,232011.62124137089,143014.94537535193,3201.4259398887516,0.0,0.6346091990666705,57.51386151078989,0.3962938229006909,-0.22222332309948653,1.4551892806753437,1.629259780476548
8345,144.92664,-37.73695,0,"Strathmore","Melbourne - North West","Education","Keilor","20451130000",88.9151950373155,348646.82000630005,31,173441.39472644348,9249.884141543997,55688.119662865996,0.0,0.0,0.0,106455.45830752439,0.5652921784275936,31.238348505904167,-0.40080701732179064,-0.8502581948655004,1.042670278150469,-0.20839493403682186
8337,145.03416,-37.87398,0,"Caulfield - North","Melbourne - Inner South","Education","Glen Eira","20191210000",78.08205983132714,550702.6850071398,43,403066.9716108758,132712.47141941276,6312.291136498097,8610.95084045967,0.0,0.0,0.0,0.35335236573903017,46.84168063074838,-0.6361089481529826,-0.4773087994216538,-0.21862455707947334,-1.3320423046541097
8245,144.96503,-37.78348,0,"Carlton North - Princes Hill","Melbourne - Inner","Education","Yarra","20636660000",82.40419895904235,570359.2850087722,47,340615.7813931828,205859.91209767168,23883.591518125497,0.0,0.0,0.0,0.0,0.4155102682223485,60.74715826015549,-0.5422295990324946,-0.14494136445640635,0.1512891480257607,-0.5358818154631402
8180,144.98972,-37.77416,0,"Northcote","Melbourne - Inner","Education","Darebin - South","20141630000",124.36062454888928,587002.5200082674,73,398220.7445545287,121204.70330652346,29769.179375528474,12748.71436122898,0.0,0.0,25059.178410515637,0.4923047989705128,53.758777086779155,0.3690881094928196,-0.3119770022860975,0.6083082600927282,0.6654193672994504
8135,144.97186,-37.83589,0,"Albert Park","Melbourne - Inner","Education","Port Phillip","20631963090",166.11933435768105,674214.1150099144,112,207664.2521558777,145224.8017738133,62411.33667786632,256454.53807923984,2459.186323318194,0.0,0.0,0.6690210495962893,156.5806315891681,1.2761113174738816,2.145661415473595,1.6599808617998044,5.081753594747282
8025,144.99532,-37.83683,0,"South Yarra - East","Melbourne - Inner","Education","Stonnington - West","20545740000",193.19518015360177,574548.4950077343,111,212078.93074974418,71430.38120121777,18488.457874836604,253324.08542412904,0.0,0.0,19226.63975771572,0.6230565515925514,143.41032034952153,1.864214269530271,1.8308658592851426,1.3864372401432017,5.081517368958615
8003,145.00226,-37.81648,0,"Richmond (Vic.)","Melbourne - Inner","Education","Yarra","20644450000",151.1474143583659,800542.9700114664,121,527844.899539873,29846.687187940057,35383.381861474365,185851.85310876332,6334.329745376543,15281.818567935377,0.0,0.5077282698968515,93.66561712552102,0.9509125991802531,0.6418725823693129,0.7000963199854502,2.292881501535016
7947,144.92558,-37.78791,0,"Kensington (Vic.)","Melbourne - Inner","Education","Melbourne City","20448980000",130.49290736689971,659039.6500110044,86,525491.2292467519,40630.53197174531,14133.601002685216,69353.73658441444,3899.4613001160324,0.0,5531.089905209839,0.3813915432589916,76.77478093205214,0.5022848212520498,0.23814938424132587,-0.051757986134677754,0.6886762193586979
7841,144.8949,-37.7991,0,"Footscray","Melbourne - West","Education","Maribyrnong","20373030000",202.6581711622164,759900.2750139874,154,490746.6552628179,0.0,42670.649974031374,222572.90009161556,0.0,0.0,0.0,0.41252815435507617,78.99316013129608,2.0697558799160047,0.2911728778517647,0.1335420113686888,2.4944707691364583
7810,144.9845,-37.88199,0,"Elwood","Melbourne - Inner","Education","Port Phillip","20521460000",88.19880629755377,646267.2500090392,57,521060.03156167804,51441.74523130956,52042.333348618355,8365.613196792314,0.0,0.0,0.0,0.3220615053017396,76.45627534538978,-0.4163673930104904,0.23053649328695874,-0.40484252225928885,-0.5906734219828205
7763,144.93326,-37.78235,0,"Flemington","Melbourne - Inner","Education","Essendon","20451740000",94.26160536943448,615308.8500103907,58,467213.6093522632,31981.994602954743,56980.4633095616,58834.68765277797,0.0,0.0,298.09509286889806,0.41690419700976805,76.32163556221545,-0.28467990820309164,0.2273183456928556,0.15958468796206407,0.10222312545182805
7670,144.89775,-37.74712,0,"Essendon - Aberfeldie","Melbourne - Inner","Education","Essendon","20448190000",40.95511220505883,610424.4050126657,25,533524.9469318001,45002.04104109388,31897.417039901018,0.0,0.0,0.0,0.0,0.23852565486299415,34.80924959502872,-1.4425276160839755,-0.7649068486451448,-0.9019805322364776,-3.1094149969655978
7526,145.04463,-37.83985,0,"Hawthorn East","Melbourne - Inner East","Education","Boroondara","20070040000",61.52758449328914,178781.60000251234,11,86542.24576438789,39125.00201150749,33733.33421824197,15479.418267599904,0.0,0.0,0.0,0.6244660116359405,39.4064117371651,-0.995681679118663,-0.655025906039482,1.3948252095890463,-0.25588237556909865
7384,144.96477,-37.82823,0,"Southbank","Melbourne - Inner","Commercial","Melbourne City","20394783000",188.25620162663725,515255.2700089909,97,162702.95379151375,9264.604978759831,37680.45972923562,134150.1176003081,114332.08122452818,0.0,57125.05268466103,0.7995274038119149,295.2544473060092,1.7569368136847896,5.46023008078704,2.4366494284496247,9.653816322921454
7366,145.04082,-37.82314,54,"Hawthorn","Melbourne - Inner East","Education","Boroondara","20069812000",114.06817463565677,736401.7200091347,84,492959.8566113543,37624.16310733053,102010.31563733332,82510.04791785855,0.0,0.0,12308.52563138539,0.5181426004518787,85.72863501754554,0.1455301743690894,0.45216357309270383,0.7620740162700801,1.3597677637318735
7300,145.02538,-37.74007,0,"Preston - East","Melbourne - North East","Education","Darebin - North","20146450000",56.39148888839509,602927.865006184,34,332549.47940642625,27489.12553857453,42557.29973311216,160631.1440810556,39700.81624658774,0.0,0.0,0.6103093548999496,34.918818502140226,-1.107240631331972,-0.7622879428024874,1.3105762060690391,-0.5589523680654203
6261,145.0257,-37.76204,89,"Thornbury","Melbourne - Inner","Education","Darebin - South","20141980000",62.57132152889803,479452.8750067194,30,224406.01377851132,101804.91105527699,39297.79834320693,0.0,113944.15182973369,0.0,0.0,0.632553907707393,34.994526094790665,-0.973011110064652,-0.7604783869535457,1.4429578441016087,-0.2905316529165891
6212,144.9905,-37.80298,0,"Collingwood","Melbourne - Inner","Education","Yarra","20639680000",132.3242453860531,597018.3300083763,79,281666.3460594674,4989.776146160904,31034.297742980067,106895.65840805168,172432.2516520943,0.0,0.0,0.6242805640402961,78.16764633969353,0.5420625369103161,0.2714415238662582,1.393721575063636,2.2072256358402105
5489,145.02003,-37.88805,0,"Caulfield - South","Melbourne - Inner South","Education","Glen Eira","20182270000",74.04229865300312,607760.7100083572,45,518209.4745849005,0.0,13613.987392226234,74538.1950746386,0.0,0.0,0.0,0.2452166955001452,42.389698720318535,-0.7238548857123219,-0.5837196576112361,-0.8621608547021128,-2.169735398025671
5271,145.00748,-37.81464,0,"Richmond (Vic.)","Melbourne - Inner","Education","Yarra","20643780000",118.68461564309699,724609.5000098017,86,526322.9138916433,7740.7911217113,26737.795911357738,53863.14437495924,109944.85471037589,0.0,0.0,0.4531497480164657,97.13139714468898,0.2458019296794554,0.724711334537639,0.375288975442913,1.3458022396600073
5269,144.99907,-37.82957,0,"Richmond (Vic.)","Melbourne - Inner","Education","Yarra","20643230000",253.24384442643097,687084.8150093858,174,200571.26675068837,89576.4302627701,9626.872632422204,300823.51410584117,30388.132496848702,0.0,56098.59876081209,0.7137718858739486,63.865356084582494,3.1685058138119455,-0.07041048962854125,1.9263017476834514,5.024397071866856
5261,144.95174,-37.73292,0,"Coburg","Melbourne - Inner","Education","Brunswick - Coburg","20467390000",50.159405291991476,578156.775009256,29,351455.2763411867,0.0,45187.27284117788,0.0,160133.79898126074,0.0,0.0,0.4381707466317454,41.97572495531909,-1.2426050734303737,-0.5936144200985595,0.2861460397963092,-1.550073453732624
5145,144.94197,-37.83679,0,"Port Melbourne","Melbourne - Inner","Education","Port Phillip","20529191000",153.61008601584516,807238.6600135695,124,578691.9492342478,146441.912679168,11969.363149769604,70135.43495033961,0.0,0.0,0.0,0.42293521575856874,111.63200609663453,1.004403244777273,1.0713035431073017,0.19547644752597038,2.271183235410545
5144,145.04074,-37.75629,0,"Heidelberg West","Melbourne - North East","Education","Banyule","20023060000",108.49785433788993,497705.69500692846,54,307198.50967392395,111921.35849007459,47867.5475691515,10888.571694132406,0.0,19025.756714835763,0.0,0.5483808001650518,30.194888991228677,0.024539611942786137,-0.8751988672843565,0.9420273937929753,0.0913681384514049
5109,144.93236,-37.77682,0,"Ascot Vale","Melbourne - Inner","Education","Essendon","20444190000",61.35747649034823,488937.9700079275,30,361873.3372401977,32217.39539567362,11624.47005015891,83222.76732210816,0.0,0.0,0.0,0.40712885996714754,42.250400970541286,-0.9993765228347931,-0.5870491394905197,0.10140976571370393,-1.485015896611609
5068,144.93526,-37.78578,0,"Flemington","Melbourne - Inner","Parkland","Essendon","20450820000",117.95611591232418,584963.3100100306,69,452431.00141852314,41960.031493803705,39459.08600072576,19188.292473226007,31550.523000248482,0.0,374.37562381336465,0.4336668493633747,107.12409292901768,0.2299784962964686,0.9635558212024945,0.25934247565732504,1.4528767931562883
5044,144.99574,-37.81363,0,"Richmond (Vic.)","Melbourne - Inner","Education","Yarra","20645250000",148.90842677526248,705131.3500106309,105,502602.5633746101,7131.896477928969,9129.64106898004,154395.62834211477,0.0,22497.72170476307,9373.899042117766,0.43373023142748507,95.37713829035133,0.9022805004024155,0.6827812023105925,0.2597196745851457,1.8447813772981536
4980,144.97044,-37.7956,0,"Carlton","Melbourne - Inner","Education","Melbourne City","20396640000",193.82422678096455,748100.4950111862,145,604254.3030402625,17177.001919891634,28856.003225329954,97813.18682583573,0.0,0.0,0.0,0.33439474717241535,118.41675819849638,1.8778775242747971,1.2334720577796772,-0.33144501342981914,2.7799045686246555
4764,145.02946,-37.73305,0,"Preston - East","Melbourne - North East","Education","Darebin - North","20148210000",87.96620162478654,363776.0800050647,32,289317.06391665386,10685.350694891531,38016.20344057144,19901.8203125766,0.0,0.0,0.0,0.3472226247482766,44.23233140198345,-0.4214197003602808,-0.5396772223702528,-0.2551038318077933,-1.216200754538327
4704,144.93562,-37.74572,0,"Pascoe Vale South","Melbourne - Inner","Education","Brunswick - Coburg","20471020000",81.24312189787986,775450.260013261,63,564859.3365252397,103788.62201558321,26194.943531945202,14438.05346148042,0.0,0.0,66169.30447875478,0.46179685460981335,37.00490505701161,-0.5674488609673329,-0.7124264956924786,0.4267495799773659,-0.8531257766824456
4679,144.9874,-37.764,0,"Northcote","Melbourne - Inner","Education","Darebin - South","20142240000",60.82425032363564,526105.9500073304,32,439252.04578711605,22889.926376635005,19369.34005823027,15162.680218177382,29431.957567245234,0.0,0.0,0.345400034693732,53.02167767012739,-1.0109585020320833,-0.3295950840921356,-0.26595041788983625,-1.606504004014055
4612,144.91711,-37.73556,0,"Strathmore","Melbourne - North West","Education","Keilor","20444910000",63.81671050120961,485766.1850090567,31,381166.073413176,30898.839174849712,23491.91556803137,17323.195220760535,0.0,0.0,32886.16163243831,0.4178934316451764,32.456130161974436,-0.9459605449005801,-0.8211508908114602,0.1654718146922579,-1.6016396210197823
4543,144.95187,-37.73603,0,"Coburg","Melbourne - Inner","Education","Brunswick - Coburg","20467390000",77.39905499690707,736443.1000130139,57,647959.1001273086,0.0,45187.25784122199,0.0,43296.74204438785,0.0,0.0,0.2315005524392297,42.13509749475816,-0.6509442062061862,-0.5898051124610252,-0.9437882761032512,-2.184537594770463
4399,144.9431,-37.75654,0,"Brunswick West","Melbourne - Inner","Education","Brunswick - Coburg","20463740000",89.34260181844009,548450.5600091727,49,493198.17971622106,19888.241925329377,16983.810741741676,11775.396146014566,0.0,0.0,6604.931479655788,0.23591301693328354,67.43034947651957,-0.3915234960754789,0.014799651362257792,-0.9175288460962815,-1.2942526908095027
4309,144.99072,-37.74789,0,"Preston - West","Melbourne - North East","Education","Darebin - North","20148730000",83.58572222618231,646043.3500099026,54,574958.7246482539,12157.532177176327,16749.736910015345,0.0,35081.83035753387,0.0,7095.525916907121,0.24715704967855315,40.761633925113905,-0.5165662337376231,-0.6226335111559025,-0.8506134315318419,-1.9898131764253675
4304,144.94318,-37.77057,3,"Brunswick West","Melbourne - Inner","Education","Brunswick - Coburg","20462910000",74.39946594353259,752693.5750117166,56,685753.7592750292,29728.191070333996,18962.13577602431,12718.965432836661,5530.523457551941,0.0,0.0,0.21084356714204672,49.03227086646976,-0.7160970066225388,-0.42494951503670775,-1.066721992691195,-2.207768514350442
4220,144.89555,-37.7566,7,"Essendon - Aberfeldie","Melbourne - Inner","Education","Essendon","20448360000",61.56391272866199,665974.5650135041,41,604711.2179961769,22628.419647297138,38634.927370022095,0.0,0.0,0.0,0.0,0.18896327020299483,34.09174971533644,-0.9948926089405121,-0.7820564641388892,-1.1969358735682014,-2.973884946647603
4183,145.04474,-37.83953,0,"Hawthorn East","Melbourne - Inner East","Education","Boroondara","20068440000",56.6548934013299,176507.2600024566,10,85208.39257077243,38921.920400619245,33529.71781782922,14945.629472487786,0.0,0.0,0.0,0.6241267340522481,39.4064117371651,-1.1015193337293214,-0.655025906039482,1.392806103038974,-0.3637391367298295
4177,145.00555,-37.77647,0,"Northcote","Melbourne - Inner","Education","Darebin - South","20139500000",118.35727753395065,650572.5850099301,77,614221.8878556013,21245.359682736453,15105.337471529376,0.0,0.0,0.0,0.0,0.13021756185734715,46.28774384373188,0.23869195757514824,-0.490548945063556,-1.5465429511075708,-1.7983999385959786
4087,145.00513,-37.87471,0,"Caulfield - North","Melbourne - Inner South","Education","Glen Eira","20184270000",55.39899753190491,487373.44000584836,27,433473.98708614724,9694.019154894893,44205.4337649105,0.0,0.0,0.0,0.0,0.20548651512118526,49.727434348219674,-1.128798114745113,-0.4083337820523111,-1.0986028458459516,-2.6357347426433755
4025,144.91112,-37.78068,0,"Ascot Vale","Melbourne - Inner","Education","Essendon","20450940000",108.63164785473151,533914.3900087103,58,281612.3003025702,28706.612420134246,11921.959224831313,211673.51806099783,0.0,0.0,0.0,0.48628445427981254,54.01774248037571,0.027445684122898537,-0.3057872354971862,0.5724800239139859,0.2941384725396982
4015,144.90303,-37.74149,0,"Essendon - Aberfeldie","Melbourne - Inner","Education","Essendon","20448270000",68.33217119341963,643913.3900114854,44,567452.531169751,12884.024688262027,26207.189841334708,37369.644312058575,0.0,0.0,0.0,0.24933038663721638,55.07266187809243,-0.8478821401482756,-0.2805726500181011,-0.8376794827545804,-1.966134272920957
3987,144.93369,-37.76341,0,"Moonee Ponds","Melbourne - Inner","Education","Essendon","20446680000",63.24937954052019,490123.3850071226,31,302056.4835063388,129191.70825302284,20214.853619055182,0.0,0.0,0.0,38660.339628859074,0.50444603186586,45.218385156458005,-0.9582832998493732,-0.5161086571007308,0.6805630863566736,-0.7938288705934304
3942,144.98836,-37.8815,0,"Elwood","Melbourne - Inner","Education","Port Phillip","20523580000",83.3964161801079,407691.3800057254,34,366235.17394061724,9494.244495294482,25966.430096810043,0.0,0.0,0.0,0.0,0.17977356586749382,81.67658108838073,-0.5206780699985333,0.35531175637198725,-1.2516255822577624,-1.4169918958843084
3941,144.94762,-37.74715,0,"Coburg","Melbourne - Inner","Education","Brunswick - Coburg","20467830000",61.763889837381456,777153.1250117101,48,740066.6097942031,25161.62544730818,11924.88977037452,0.0,0.0,0.0,0.0,0.11394123615250631,44.24008554126497,-0.9905489910580622,-0.5394918836532345,-1.6434065148128145,-3.173447389524111
3889,144.99675,-37.75543,0,"Thornbury","Melbourne - Inner","Education","Darebin - South","20142050000",100.90220547873881,733383.3750104958,74,583994.9816744106,40562.75138310529,18292.388400079282,43336.2833489915,0.0,0.0,47196.97020390292,0.39942887409523303,51.97735607751026,-0.14044225235500554,-0.3545563618178959,0.0555856598584223,-0.4394129543144792
3885,144.99553,-37.73737,0,"Preston - West","Melbourne - North East","Education","Darebin - North","20146950000",96.14682857184366,676049.340009485,65,582410.1653539443,0.0,67567.34156621862,26071.83308923152,0.0,0.0,0.0,0.24881493929224802,42.25835993516242,-0.24373177535513907,-0.5868589050572551,-0.8407470096424942,-1.6713376900548882
3820,145.02156,-37.87211,0,"Caulfield - North","Melbourne - Inner South","Education","Glen Eira","20184301000",67.99262509597368,661836.4850082067,45,540786.89906211,78080.77172969116,20117.563041905873,22851.25117467856,0.0,0.0,0.0,0.32869057243750244,48.474645684927786,-0.8552572767837957,-0.438277820342035,-0.36539166102343107,-1.658926758149262
3806,145.01427,-37.75452,0,"Thornbury","Melbourne - Inner","Education","Darebin - South","20141320000",58.75823432312557,680755.6500086514,40,658942.2902839244,17275.583318608813,4537.776406179764,0.0,0.0,0.0,0.0,0.08127697997813035,45.82577562705777,-1.0558335584958323,-0.5015908664778002,-1.8377978237732915,-3.395222248746924
3774,144.98232,-37.84977,6,"South Yarra - West","Melbourne - Inner","Education","Melbourne City","20400690000",135.24319048968837,635891.5350089814,86,491708.51119846373,46728.61243869201,69347.82779010758,6960.751260745943,0.0,21145.83232107224,0.0,0.40851940767124334,147.6492238035316,0.6054637043300642,1.932183735996921,0.10968518416891487,2.6473326244959003
3599,145.03201,-37.78352,0,"Yarra - North","Melbourne - Inner","Education","Yarra","20638770000",80.19451098338737,498787.2550065947,40,420110.5405650489,63279.539812750816,12406.655866646208,0.0,2990.518762187334,0.0,0.0,0.2718910989051184,32.07390454229056,-0.5902252934754724,-0.8302868120777438,-0.703416318596612,-2.1239284241498284
3585,144.95062,-37.75986,0,"Brunswick","Melbourne - Inner","Education","Brunswick - Coburg","20462110000",84.56392216345117,768649.3050116972,65,709748.6135546598,32077.365452110593,15348.451363839209,11474.874641005183,0.0,0.0,0.0,0.17836936098572306,60.29945689550321,-0.49531916817426913,-0.1556422808985165,-1.259982277219953,-1.9109437262927385
3179,144.9794,-37.7651,0,"Brunswick East","Melbourne - Inner","Education","Brunswick - Coburg","20461400000",99.75719099551645,541314.3600086635,54,446151.4706628569,76543.02187614334,12464.393750117313,6155.473719349655,0.0,0.0,0.0,0.29482136173987183,68.65228198501224,-0.16531262585343348,0.04400616870542911,-0.5669538875080323,-0.6882603446560367
3146,145.00388,-37.78679,0,"Yarra - North","Melbourne - Inner","Education","Yarra","20641640000",111.46584547565313,439596.54000653327,49,304651.1892247727,126985.08253460433,7960.2682473398745,0.0,0.0,0.0,0.0,0.35226488982401855,65.23678368976178,0.08900608744837175,-0.03763075436723575,-0.22509633667407303,-0.17372100359293702
3139,145.00883,-37.76151,0,"Thornbury","Melbourne - Inner","Education","Darebin - South","20139870000",45.42203469332612,748535.3800100822,34,730683.0795395405,0.0,17852.30047032563,0.0,0.0,0.0,0.0,0.05789829481104345,51.86575894960534,-1.3455034890536446,-0.3572237460056066,-1.9769289029303916,-3.6796561379896424
3110,144.9874,-37.77697,0,"Fitzroy North","Melbourne - Inner","Education","Yarra","20637210000",113.37452757643024,555680.3750077742,63,409598.7483469548,88128.20642144151,19347.236000864155,26350.385581931565,0.0,0.0,12255.798656390187,0.4432194589088741,60.14192514141572,0.1304637610687958,-0.15940759025552192,0.31619190347300236,0.28724807428627624
3016,145.0099,-37.84508,0,"Toorak","Melbourne - Inner","Education","Stonnington - West","20546000000",120.87257519842562,306107.485004439,37,291458.6544130526,9846.717977452907,4802.11261382699,0.0,0.0,0.0,0.0,0.11430386890581964,45.830540319376055,0.2933256703288654,-0.5014769812444819,-1.6412484171291504,-1.849399728044767
2955,144.9681,-37.7804,0,"Carlton North - Princes Hill","Melbourne - Inner","Education","Yarra","20636310000",91.21529407325035,635858.2800097445,58,522573.85280301323,48600.00017795601,37325.69249546637,27358.734533195235,0.0,0.0,0.0,0.338957429963074,71.09110441182645,-0.35084754262057416,0.10229867586978178,-0.3042916052728211,-0.5528404720236135
2932,144.9338,-37.83532,0,"Port Melbourne","Melbourne - Inner","Education","Port Phillip","20532000000",129.99858814905176,623083.6900099891,81,426714.42870444176,113066.61884382891,21594.276882054284,0.0,61708.36557963886,0.0,0.0,0.46995340499073024,66.70135554167811,0.49154792337392733,-0.0026246939702662406,0.47529078957001947,0.9642140189736805
2901,144.90958,-37.76828,0,"Moonee Ponds","Melbourne - Inner","Education","Essendon","20446880000",78.35332069767286,676423.1500091883,53,631001.138086606,12583.109529238289,14606.133712017909,0.0,0.0,18232.768681434914,0.0,0.16402893464493057,47.353659492184995,-0.6302170060331422,-0.4650715282205371,-1.3453249292171774,-2.4406134634708567
2870,144.99728,-37.89142,0,"Brighton (Vic.)","Melbourne - Inner South","Education","Bayside","20044160000",63.08879855554966,237760.11500349792,15,143647.1860397698,56951.57547682879,33261.351675740094,0.0,0.0,0.0,0.0,0.4731663349718511,35.236529691982,-0.9617712112526624,-0.754694039447154,0.4944115575830502,-1.222053693116766
2837,144.96648,-37.75505,0,"Coburg","Melbourne - Inner","Education","Brunswick - Coburg","20467930000",66.93135513289631,732093.350010731,49,529129.3826966335,0.0,32379.63755386474,124687.74099134616,40738.775547828176,5157.813221494202,0.0,0.44694926684545994,51.1366707841555,-0.8783086711121164,-0.37465034362938165,0.33838871221383227,-0.9145703025276657
2815,144.9575,-37.8478,0,"Albert Park","Melbourne - Inner","Education","Port Phillip","20529380000",145.77921637000222,816302.9200127274,119,753562.6073740273,47072.32035179222,15582.814165583113,0.0,0.0,0.0,0.0,0.16128592640426775,62.39173111895613,0.8343122496297509,-0.1056329367086901,-1.3616491020238464,-0.6329697891027856
2784,144.94974,-37.8306,0,"South Melbourne","Melbourne - Inner","Education","Port Phillip","20529430000",190.52790132844711,740049.0900119296,141,140928.7369653721,39537.18447882272,6255.6796834450215,56479.13209995878,459163.8374045814,0.0,37684.51937967574,0.5944768224088035,44.40505433646874,1.806279438505813,-0.5355488148301091,1.2163537416515717,2.4870843653272754
2743,144.97241,-37.77867,0,"Brunswick East","Melbourne - Inner","Education","Brunswick - Coburg","20461480000",101.66310601291171,678712.295011296,69,568943.2441203487,32375.877053923352,26725.19494010202,50667.978896830915,0.0,0.0,0.0,0.3155926859934717,83.32010718102921,-0.12391505487644006,0.3945951644123426,-0.4433397176660976,-0.17265960813019504
2711,145.0204,-37.77799,0,"Alphington - Fairfield","Melbourne - Inner","Education","Darebin - South","20140080000",78.32630055415518,676656.4950090493,53,561960.872823095,6300.969534049276,30016.038859956432,78378.6137922466,0.0,0.0,0.0,0.3009820794538896,44.833186786617595,-0.6308038990996601,-0.5253156327651914,-0.5302902643056346,-1.6864097961704863
2634,145.01778,-37.85219,0,"Armadale","Melbourne - Inner","Education","Stonnington - West","20550230000",131.23177876670158,601988.3350087247,79,524070.9353988328,0.0,20569.99797380634,57347.40163593678,0.0,0.0,0.0,0.23640184739301856,43.142512795332784,0.5183335332549442,-0.5657259655003604,-0.9146197214427042,-0.9620121536881203
2608,144.92612,-37.77432,0,"Ascot Vale","Melbourne - Inner","Education","Essendon","20445260000",78.93833482736184,570065.2300104254,45,460282.38015610364,819.4872892056592,11148.270484000444,97815.09208088432,0.0,0.0,0.0,0.2885624629045245,44.01448635953961,-0.6175101624775247,-0.5448841343445553,-0.6042018055613085,-1.7665961023833885
2605,144.96951,-37.80205,5,"Carlton","Melbourne - Inner","Education","Melbourne City","20395860000",222.60854623407653,741211.4350115731,165,261273.247514543,206907.4517763969,19035.94459881763,243588.32736354362,0.0,10406.46375814965,0.0,0.638979208203922,113.92844654277397,2.5030895073427364,1.1261928493918754,1.4811960506389579,5.110478407373569
2586,145.03847,-37.87159,0,"Malvern - Glen Iris","Melbourne - Inner South","Education","Stonnington - East","20557120000",85.06753409949576,517236.10500496236,44,450152.3217780391,4084.0463865359416,16071.828886277974,46927.90795391258,0.0,0.0,0.0,0.2491007712573042,42.32023902378695,-0.48438042710922435,-0.5853798768273561,-0.8390459683105441,-1.9088062722471246
2436,145.04298,-37.76657,0,"Ivanhoe","Melbourne - North East","Education","Banyule","20023130000",106.56726771311219,609943.3850080995,65,426155.0405499582,15119.661835452076,16519.264965016395,120384.42939191707,0.0,0.0,23012.012913244776,0.4533825137926193,34.83583619766544,-0.01739384054435398,-0.7642713781378881,0.3766742096165048,-0.4049910090657374
2374,144.92758,-37.7927,0,"Kensington (Vic.)","Melbourne - Inner","Education","Melbourne City","20449350000",179.44099713289708,640879.1850104858,115,573505.4401148295,16634.965856730123,11937.122259524109,16520.074969850597,8931.975118000992,0.0,13349.606691479683,0.258419238764655,80.03477885789631,1.5654654991846009,0.3160695519249909,-0.7835899650698948,1.097945086039697
1912,144.90025,-37.8064,0,"Footscray","Melbourne - West","Education","Maribyrnong","20377070000",91.12710180914017,680368.3950122214,62,320859.0242844146,18717.34407004167,45934.1646992974,160192.20399720286,134665.65796125587,0.0,0.0,0.6662342595569413,44.481281132354425,-0.35276312934915366,-0.5337268490336544,1.6433961350374713,0.7569061566546632
1896,144.99564,-37.85715,0,"Prahran - Windsor","Melbourne - Inner","Education","Stonnington - West","20544290000",174.35127631435006,648116.850009543,113,384224.6462079168,80621.76908578022,67502.79111361287,115767.64360224496,0.0,0.0,0.0,0.5717058625651052,84.52433747306316,1.4549138340181027,0.4233785650216345,1.0808393534875642,2.9591317525273015
1886,144.99881,-37.80898,0,"Abbotsford","Melbourne - Inner","Education","Yarra","20637040000",117.24763234724436,545853.2400079137,64,335766.3626745904,15919.868937293853,14446.561778888106,109745.68989093207,69888.67006370836,0.0,86.08666245732456,0.5576830584110225,91.13161909439708,0.21458982555106015,0.5813051967492361,0.9973869325826932,1.7932819548829895
1604,145.0344,-37.85601,0,"Malvern - Glen Iris","Melbourne - Inner South","Education","Stonnington - East","20555670000",78.41771997614156,586602.1100077305,46,491890.2882144175,34642.904032333754,37515.79883565416,18105.947152918678,0.0,4447.171772220172,0.0,0.3263056672800535,68.67128809459474,-0.6288182166448733,0.04446045097166689,-0.3795846930896801,-0.9639424587628865
1508,145.03386,-37.82404,0,"Hawthorn","Melbourne - Inner East","Education","Boroondara","20067480000",99.93593381164945,620397.4650084544,62,412180.5515630536,18502.790605383678,31703.118148124457,151484.39620529913,0.0,6526.608486684621,0.0,0.4730743099971123,95.09471193229976,-0.1614302290256851,0.6760306737279811,0.4938638991517351,1.008464343854031
1490,144.98415,-37.78502,0,"Fitzroy North","Melbourne - Inner","Education","Yarra","20640000000",120.95366659592483,768889.4650105081,93,498558.8340791865,201666.9865604216,24164.939078142866,44498.70529310545,0.0,0.0,0.0,0.46537917368381776,64.91009603011248,0.2950870221483106,-0.045439212470308146,0.4480686539581805,0.697716463636183
1479,144.98901,-37.87022,0,"St Kilda","Melbourne - Inner","Education","Port Phillip","20525150000",120.59617394283039,754584.4700109581,91,583433.3729622974,42892.70256711729,21156.424792216625,100285.67176008318,0.0,0.0,6816.297929028748,0.39715640794474855,83.70392936260147,0.28732207599637966,0.40376924655261753,0.042061774079336596,0.7331530966283338
1409,144.89175,-37.8559,0,"Williamstown","Melbourne - West","Education","Hobsons Bay","20283450000",83.53119979491399,646465.0350118391,54,531328.2883639423,32714.64237010756,13835.912971630692,44525.115375538626,0.0,0.0,21599.657162233256,0.35517518564323985,44.43645805730111,-0.517750492320859,-0.5347982060110817,-0.20777660311759805,-1.2603253014495388
1402,144.95078,-37.79861,0,"North Melbourne","Melbourne - Inner","Education","Melbourne City","20401850000",218.86521855947132,740181.565011804,162,470128.6339340518,32144.796608405886,43314.84449668386,152367.26656921976,0.0,42226.02340304246,0.0,0.554679176237058,123.60961953616086,2.4217822760731087,1.3575913472372187,0.979510248520373,4.758883871830701
1401,144.99689,-37.77176,0,"Northcote","Melbourne - Inner","Education","Darebin - South","20139540000",107.82116504158382,584300.865008299,63,440649.1867603578,0.0,24396.172491262667,88635.83508211329,0.0,0.0,30619.67067465512,0.40392863477400365,54.850928640372146,0.009841531011828079,-0.2858724972748237,0.08236460635227477,-0.1936663599107209
1360,144.98924,-37.79231,0,"Yarra - North","Melbourne - Inner","Education","Yarra","20638090000",124.97723868659584,744135.5000106472,93,439516.5901276322,99609.80561579205,18804.312817298924,136798.27583274455,0.0,0.0,49406.51561716083,0.5984704583642844,64.5970662703692,0.382481323407473,-0.052921220718168675,1.240120641983028,1.5696807446723322
1252,144.97302,-37.79106,0,"Carlton North - Princes Hill","Melbourne - Inner","Education","Yarra","20636340000",118.28907442986477,710124.7550111212,84,597285.8759377846,55387.73227898057,31341.855076281354,10535.064909714274,0.0,0.0,15574.226808375737,0.32298180890244643,101.28284118537196,0.23721054690548196,0.8239387644739956,-0.39936561745461796,0.6617836939248597
1183,144.89973,-37.86381,0,"Williamstown","Melbourne - West","Education","Hobsons Bay","20284160000",82.17627067225418,742306.7450126562,61,542851.3445239859,88022.43008299226,42407.24023506977,24638.59696091051,10541.944666648977,0.0,32942.04053243098,0.49172046339647624,41.056722858257494,-0.5471803325876943,-0.6155803228793523,0.604830766023898,-0.5579298894431485
1181,144.9524,-37.84179,10,"Albert Park","Melbourne - Inner","Education","Port Phillip","20531680000",210.07921642508992,866339.8650141938,182,744454.966349259,25368.642950079637,28013.47289327879,68502.78282140906,0.0,0.0,0.0,0.280218941491013,58.40716566675398,2.2309452536233088,-0.20087165012036565,-0.6538557159474448,1.376217887555498
1075,145.03316,-37.80463,0,"Kew","Melbourne - Inner East","Education","Boroondara","20074520000",71.4530013365461,559808.5350060891,40,409254.9162654792,19522.196423590183,16057.042297431559,114904.20178294268,0.0,0.0,70.17823650268838,0.3977884507723675,53.52018920649428,-0.7800959134917564,-0.31767970764419173,0.0458231832454916,-1.0519524378904566
824,145.00745,-37.74787,0,"Preston - East","Melbourne - North East","Education","Darebin - North","20631920750",101.26916581280221,750475.2250106148,76,582850.153777973,39808.89977326374,24479.61278296169,95145.41121316602,0.0,0.0,8191.147463507252,0.3982130269564894,64.09724407698812,-0.13247166272405106,-0.06486792436835145,0.04834991827182429,-0.14898966882057824
583,144.98563,-37.84135,0,"South Yarra - West","Melbourne - Inner","Education","Melbourne City","20399100000",177.4476865090202,772058.5300109611,137,472961.67360508087,238273.06911252977,14677.98304999969,28826.144096745193,0.0,17319.66014675272,0.0,0.48630409890494836,84.81994397705641,1.5221696453411737,0.43044412422856926,0.5725969328793639,2.525210702449107
484,144.96803,-37.74118,0,"Coburg","Melbourne - Inner","Education","Brunswick - Coburg","20466610000",115.90399981495592,741993.375011229,86,407562.5188547155,71981.14811032466,43895.47637026594,187226.691659016,31327.540016642306,0.0,0.0,0.6186187991162734,43.56406536535248,0.18540535372795336,-0.5556500551192491,1.3600273164608434,0.9897826150695477
483,144.92104,-37.7531,0,"Essendon - Aberfeldie","Melbourne - Inner","Education","Essendon","20445780000",74.24104706208423,592664.0550099583,44,451006.4961821232,36677.22376247984,29811.696530904293,75168.63853440422,0.0,0.0,0.0,0.4071792518764566,49.30150410017223,-0.7195379558930981,-0.4185143272871083,0.1017096577167335,-1.0363426254634729
450,144.9815,-37.7996,3,"Fitzroy","Melbourne - Inner","Education","Yarra","20638150000",174.75795185530401,835441.2400122713,146,498705.9955040437,3513.267276602797,42806.791509730654,289947.862459147,0.0,0.0,467.32326290220954,0.4392318103702313,86.50218056456522,1.463747060797677,0.4706527869222242,0.2924606354177022,2.226860483137603
293,145.01839,-37.82011,0,"Hawthorn","Melbourne - Inner East","Education","Boroondara","20071720000",110.66882820068533,614445.8300099621,68,432602.9450107053,104784.79636230636,41028.576486834565,35995.71604458225,33.79610549623612,0.0,0.0,0.4605419553616233,54.114377421307715,0.07169441357559761,-0.30347747611303777,0.41928143173094884,0.18749836919350868
253,144.89267,-37.79838,0,"Footscray","Melbourne - West","Education","Maribyrnong","20376930000",174.377470462105,699631.6650120952,122,538138.731423563,0.0,42670.63497403078,109691.57815364946,0.0,0.0,0.0,0.33844610355909616,85.74658263263122,1.4554827859813173,0.45259255532177545,-0.30733460764350656,1.600740733659586
250,144.9336,-37.78139,0,"Flemington","Melbourne - Inner","Education","Essendon","20444990000",96.71157514174718,620401.4350098202,60,475970.20809037215,21631.70083958685,59202.99707785784,62267.54338195169,0.0,0.0,1328.9856200125068,0.4051749496406492,73.66216004901129,-0.23146515486145836,0.16375180894856986,0.08978166728306027,0.02206832137017177
